     3.03           OBSERVATION DATA    M: Mixed            RINEX VERSION / TYPE
RTKCONV 2.4.3 Emlid                     20190213 151833 UTC PGM / RUN BY / DATE 
log: C:\Users\floor melman\Downloads\2018-09-12_13h13m_000  COMMENT             
format: Septentrio                                          COMMENT             
                                                            MARKER NAME         
                                                            MARKER NUMBER       
                                                            MARKER TYPE         
                                                            OBSERVER / AGENCY   
                                                            REC # / TYPE / VERS 
                                                            ANT # / TYPE        
  3904163.1268   301792.2815  5017766.8439                  APPROX POSITION XYZ 
        0.0000        0.0000        0.0000                  ANTENNA: DELTA H/E/N
G    4 C1C L1C D1C S1C                                      SYS / # / OBS TYPES 
R    4 C1C L1C D1C S1C                                      SYS / # / OBS TYPES 
E    4 C1C L1C D1C S1C                                      SYS / # / OBS TYPES 
  2018     9    12    11    14   19.0000000     GPS         TIME OF FIRST OBS   
  2018     9    12    11    45   30.0000000     GPS         TIME OF LAST OBS    
G                                                           SYS / PHASE SHIFT   
R                                                           SYS / PHASE SHIFT   
E                                                           SYS / PHASE SHIFT   
 10 R06 -4 R07  5 R08  6 R13 -2 R14 -7 R15  0 R21  4 R22 -3 GLONASS SLOT / FRQ #
    R23  3 R24  2                                           GLONASS SLOT / FRQ #
 C1C    0.000 C1P    0.000 C2C    0.000 C2P    0.000        GLONASS COD/PHS/BIS 
                                                            END OF HEADER       
> 2018  9 12 11 14 19.0000000  0 18 
G18  20599454.752   108250864.512        5373.865          49.750  
G 8  20390300.084   107151750.655        3014.472          53.750  
E26  23008605.288   120911037.332        1556.577          51.000  
G10  21459445.377   112770147.865        1511.129          48.000  
R 8  21950589.818   117544414.742        7640.606          46.250  
G27  21366352.632   112280939.285         821.191          50.250  
G22  24157606.877   126949083.872        6930.000          40.000  
R23  20542990.075   109891151.981        6134.072          38.750  
R21  23382491.646   125124447.552        -203.428          45.750  
G20  23315336.535   122522919.008         117.437          40.750  
G14  24607155.303   129311473.085        6517.956          40.250  
E 7  24997215.774   131361251.246        3376.879          50.000  
R 6  21493791.996   114694994.722         445.263          38.750  
E20  49920278.074   262332834.463        5971.413          42.750  
G 1  22600037.781   118764001.136        6367.001          40.000  
R22  19652226.792   104904921.201        2180.215          52.500  
R 7  19841358.014   106212345.050        4446.248          51.250  
G11  21691587.376   113990064.911        6195.008          38.000  
> 2018  9 12 11 14 20.0000000  0 19                     
G32  23477367.504   123374396.992        5947.354          44.000  
G18  20598432.169   108245490.816        5373.293          49.750  
G 8  20389726.512   107148736.494        3013.676          53.750  
E26  23008309.090   120909480.857        1556.198          50.750  
G10  21459157.869   112768637.055        1510.497          48.000  
R 8  21949163.071   117536774.349        7640.070          46.000  
G27  21366196.397   112280118.316         820.579          50.250  
G22  24156288.118   126942153.915        6929.711          40.250  
R23  20541843.333   109885017.987        6133.641          38.500  
R21  23382529.684   125124651.133        -203.768          45.500  
G20  23315314.238   122522801.838         116.867          40.750  
G14  24605915.037   129304955.450        6517.317          40.250  
E 7  24996573.213   131357874.539        3376.295          50.000  
R 6  21493708.594   114694549.866         444.282          38.750  
E20  49919141.781   262326863.248        5970.926          42.500  
G 1  22598826.238   118757634.441        6366.632          40.000  
R22  19651818.394   104902741.260        2179.520          52.500  
R 7  19840527.485   106207899.276        4445.161          51.500  
G11  21690408.509   113983870.207        6194.376          38.000  
> 2018  9 12 11 14 21.0000000  0 19                     
G32  23476235.796   123368449.807        5947.046          44.000  
G18  20597409.688   108240117.657        5373.000          50.000  
G 8  20389153.061   107145722.993        3013.274          53.750  
E26  23008012.944   120907924.674        1556.065          50.750  
G10  21458870.477   112767126.850        1509.979          48.250  
R 8  21947736.403   117529134.443        7639.703          46.250  
G27  21366040.266   112279297.864         820.192          50.250  
G22  24154969.391   126935224.208        6929.730          40.250  
R23  20540696.653   109878884.398        6133.588          38.750  
R21  23382567.787   125124854.964        -203.957          45.500  
G20  23315292.016   122522685.015         116.753          40.750  
G14  24604674.801   129298438.012        6517.459          40.000  
E 7  24995930.771   131354498.430        3375.811          49.500  
R 6  21493625.333   114694105.723         443.774          38.500  
E20  49918005.551   262320892.386        5970.671          42.500  
G 1  22597614.761   118751268.070        6366.236          40.000  
R22  19651410.126   104900561.941        2179.065          52.750  
R 7  19839697.158   106203454.486        4444.399          51.250  
G11  21689229.743   113977675.905        6194.103          38.000  
> 2018  9 12 11 14 22.0000000  0 19                     
G32  23475104.166   123362503.096        5946.343          44.000  
G18  20596387.309   108234745.023        5372.137          50.000  
G 8  20388579.741   107142710.154        3012.356          53.750  
E26  23007716.864   120906368.786        1555.582          50.750  
G10  21458583.204   112765617.234        1509.138          48.250  
R 8  21946309.840   117521495.028        7639.058          46.250  
G27  21365884.228   112278477.916         819.512          50.250  
G22  24153650.702   126928294.761        6929.239          40.500  
R23  20539550.042   109872751.246        6132.885          38.750  
R21  23382605.958   125125059.063        -204.338          45.750  
G20  23315269.854   122522568.535         116.105          40.500  
G14  24603434.601   129291920.790        6516.991          39.750  
E 7  24995288.419   131351122.881        3375.114          50.000  
R 6  21493542.205   114693662.322         442.804          38.750  
E20  49916869.388   262314921.893        5970.275          42.750  
G 1  22596403.356   118744902.028        6365.717          40.000  
R22  19651001.982   104898383.246        2178.194          52.750  
R 7  19838867.018   106199010.690        4443.069          51.250  
G11  21688051.101   113971482.032        6193.575          38.250  
> 2018  9 12 11 14 23.0000000  0 19                     
G32  23473972.608   123356556.714        5946.220          43.750  
G18  20595364.999   108229372.743        5372.100          49.750  
G 8  20388006.515   107139697.820        3012.042          53.500  
E26  23007420.804   120904813.023        1555.626          50.750  
G10  21458296.023   112764108.073        1508.908          48.250  
R 8  21944883.335   117513855.908        7639.008          46.250  
G27  21365728.263   112277658.317         819.392          50.250  
G22  24152332.039   126921365.404        6929.224          40.500  
R23  20538403.541   109866618.359        6132.625          38.750  
R21  23382644.153   125125263.262        -204.234          46.000  
G20  23315247.721   122522452.220         116.123          40.750  
G14  24602194.414   129285403.601        6517.060          40.000  
E 7  24994646.168   131347747.782        3374.849          50.000  
R 6  21493459.176   114693219.493         442.602          38.750  
E20  49915733.267   262308951.616        5970.106          42.750  
G 1  22595191.979   118738536.141        6365.984          40.000  
R22  19650593.932   104896204.992        2178.018          52.500  
R 7  19838037.041   106194567.733        4442.494          51.250  
G11  21686872.516   113965288.407        6193.388          38.250  
> 2018  9 12 11 14 24.0000000  0 19                     
G32  23472841.143   123350610.917        5945.553          43.750  
G18  20594342.817   108224001.129        5371.218          49.750  
G 8  20387433.436   107136686.270        3011.104          53.500  
E26  23007124.828   120903257.680        1555.074          50.500  
G10  21458008.973   112762599.620        1508.168          48.250  
R 8  21943456.931   117506217.338        7638.286          46.500  
G27  21365572.426   112276839.362         818.607          50.250  
G22  24151013.434   126914436.417        6928.815          40.250  
R23  20537257.096   109860485.995        6132.138          38.750  
R21  23382682.448   125125467.855        -204.796          46.250  
G20  23315225.669   122522336.381         115.538          40.500  
G14  24600954.309   129278886.755        6516.656          39.500  
E 7  24994004.044   131344373.378        3373.999          49.750  
R 6  21493376.355   114692777.525         441.530          38.750  
E20  49914597.240   262302981.818        5969.525          42.500  
G 1  22593980.705   118732170.724        6365.153          40.000  
R22  19650186.031   104894027.479        2177.134          52.750  
R 7  19837207.279   106190125.919        4441.223          51.250  
G11  21685694.056   113959095.310        6192.932          38.250  
> 2018  9 12 11 14 25.0000000  0 19                     
G32  23471709.755   123344665.531        5945.453          43.750  
G18  20593320.716   108218629.922        5371.250          50.000  
G 8  20386860.467   107133675.293        3010.921          53.500  
E26  23006828.890   120901702.534        1555.282          50.750  
G10  21457722.024   112761091.689        1507.916          48.250  
R 8  21942030.579   117498579.074        7638.299          46.500  
G27  21365416.668   112276020.818         818.549          50.250  
G22  24149694.852   126907507.581        6929.047          40.500  
R23  20536110.753   109854353.967        6132.084          38.750  
R21  23382720.782   125125672.595        -204.512          46.250  
G20  23315203.666   122522220.789         115.677          40.750  
G14  24599714.226   129272370.009        6516.986          39.500  
E 7  24993362.010   131340999.463        3373.895          49.750  
R 6  21493293.670   114692336.169         441.234          38.750  
E20  49913461.265   262297012.295        5969.724          42.500  
G 1  22592769.479   118725805.539        6365.208          40.000  
R22  19649778.234   104891850.490        2176.952          52.750  
R 7  19836377.685   106185684.991        4440.700          51.250  
G11  21684515.657   113952902.533        6192.918          38.250  
> 2018  9 12 11 14 26.0000000  0 19                     
G32  23470578.416   123338720.412        5945.120          43.500  
G18  20592298.679   108213259.050        5370.771          50.000  
G 8  20386287.587   107130664.789        3010.386          53.500  
E26  23006532.969   120900147.476        1555.093          50.750  
G10  21457435.142   112759584.160        1507.322          48.250  
R 8  21940604.265   117490941.036        7637.972          46.500  
G27  21365260.962   112275202.590         818.139          50.250  
G22  24148376.276   126900578.814        6928.760          40.750  
R23  20534964.456   109848222.120        6131.801          38.750  
R21  23382759.158   125125877.415        -204.715          46.250  
G20  23315181.685   122522105.340         115.399          40.750  
G14  24598474.152   129265853.276        6516.707          39.750  
E 7  24992720.055   131337625.934        3373.434          50.000  
R 6  21493211.085   114691895.324         440.637          39.250  
E20  49912325.325   262291042.956        5969.343          42.500  
G 1  22591558.271   118719440.475        6365.083          40.250  
R22  19649370.521   104889673.919        2176.443          52.750  
R 7  19835548.232   106181244.851        4439.772          51.250  
G11  21683337.317   113946710.007        6192.387          38.250  
> 2018  9 12 11 14 27.0000000  0 19                     
G32  23469447.148   123332775.657        5944.377          43.750  
G18  20591276.718   108207888.576        5370.149          50.000  
G 8  20385714.812   107127654.816        3009.562          53.750  
E26  23006237.088   120898592.585        1554.672          50.750  
G10  21457148.354   112758077.099        1506.700          48.250  
R 8  21939178.043   117483303.339        7637.405          46.500  
G27  21365105.331   112274384.748         817.469          50.250  
G22  24147057.726   126893650.137        6928.458          41.000  
R23  20533818.214   109842090.569        6131.220          39.000  
R21  23382797.549   125126082.367        -205.110          46.000  
G20  23315159.739   122521990.112         114.958          41.000  
G14  24597234.093   129259336.613        6516.654          39.750  
E 7  24992078.180   131334252.861        3372.717          50.250  
R 6  21493128.597   114691455.049         439.894          39.000  
E20  49911189.437   262285073.862        5968.744          42.750  
G 1  22590347.115   118713075.629        6364.569          40.500  
R22  19648962.902   104887497.837        2175.705          52.750  
R 7  19834718.937   106176805.594        4438.675          51.250  
G11  21682159.010   113940517.718        6192.056          38.500  
> 2018  9 12 11 14 28.0000000  0 19                     
G32  23468315.977   123326831.366        5944.046          44.000  
G18  20590254.853   108202518.596        5369.769          50.000  
G 8  20385142.153   107124645.496        3008.996          53.750  
E26  23005941.255   120897037.975        1554.432          50.750  
G10  21456861.676   112756570.627        1506.204          48.250  
R 8  21937751.899   117475666.121        7636.939          46.750  
G27  21364949.796   112273567.396         817.053          50.250  
G22  24145739.225   126886721.723        6928.338          41.000  
R23  20532672.033   109835959.418        6130.795          39.000  
R21  23382835.975   125126287.571        -205.283          46.000  
G20  23315137.862   122521875.197         114.756          41.000  
G14  24595994.075   129252820.159        6516.348          39.500  
E 7  24991436.422   131330880.363        3372.155          50.250  
R 6  21493046.256   114691015.497         439.014          39.250  
E20  49910053.617   262279105.116        5968.562          42.750  
G 1  22589136.005   118706711.080        6364.382          40.250  
R22  19648555.395   104885322.359        2175.105          53.000  
R 7  19833889.828   106172367.329        4437.769          51.500  
G11  21680980.806   113934325.873        6191.633          38.250  
> 2018  9 12 11 14 29.0000000  0 19                     
G32  23467184.881   123320887.515        5943.387          44.250  
G18  20589233.084   108197149.119        5369.032          50.000  
G 8  20384569.615   107121636.791        3008.146          53.500  
E26  23005645.469   120895483.616        1553.994          51.000  
G10  21456575.100   112755064.727        1505.397          48.250  
R 8  21936325.835   117468029.325        7636.356          47.000  
G27  21364794.348   112272750.511         816.470          50.250  
G22  24144420.774   126879793.499        6927.914          41.250  
R23  20531525.986   109829828.653        6130.358          39.250  
R21  23382874.446   125126492.994        -205.763          46.000  
G20  23315116.039   122521760.594         114.218          41.250  
G14  24594754.067   129246303.873        6515.908          39.750  
E 7  24990794.766   131327508.410        3371.410          50.250  
R 6  21492964.006   114690576.617         438.244          39.250  
E20  49908917.857   262273136.708        5967.967          42.750  
G 1  22587924.942   118700346.838        6363.724          40.500  
R22  19648147.998   104883147.450        2174.373          53.000  
R 7  19833060.898   106167930.011        4436.599          51.500  
G11  21679802.670   113928134.396        6191.127          38.500  
> 2018  9 12 11 14 30.0000000  0 19                     
G32  23466053.905   123314944.278        5942.828          44.250  
G18  20588211.439   108191780.298        5368.504          50.000  
G 8  20383997.226   107118628.871        3007.505          53.500  
E26  23005349.767   120893929.676        1553.750          51.000  
G10  21456288.664   112753559.547        1504.798          48.250  
R 8  21934899.883   117460393.111        7635.948          47.000  
G27  21364639.022   112271934.272         815.909          50.250  
G22  24143102.389   126872865.651        6927.711          41.500  
R23  20530380.014   109823698.434        6129.897          39.250  
R21  23382912.995   125126698.808        -206.095          46.250  
G20  23315094.310   122521646.464         113.854          41.000  
G14  24593514.115   129239787.925        6515.657          39.750  
E 7  24990153.241   131324137.168        3370.850          50.250  
R 6  21492881.890   114690138.570         437.474          39.000  
E20  49907782.192   262267168.791        5967.707          43.000  
G 1  22586713.955   118693983.047        6363.661          40.500  
R22  19647740.731   104880973.291        2173.801          52.750  
R 7  19832232.169   106163493.806        4435.670          51.500  
G11  21678624.602   113921943.461        6190.642          38.250  
> 2018  9 12 11 14 31.0000000  0 19                     
G32  23464922.982   123309001.365        5943.006          44.000  
G18  20587189.863   108186411.862        5368.354          50.000  
G 8  20383424.942   107115621.499        3007.187          53.500  
E26  23005054.101   120892375.896        1553.773          50.750  
G10  21456002.325   112752054.824        1504.568          48.250  
R 8  21933473.982   117452757.179        7635.941          47.000  
G27  21364483.764   112271118.405         815.790          50.250  
G22  24141784.017   126865937.919        6927.699          41.500  
R23  20529234.170   109817568.490        6129.836          39.750  
R21  23382951.537   125126904.739        -205.979          46.250  
G20  23315072.625   122521532.528         113.881          41.000  
G14  24592274.171   129233272.034        6515.951          39.500  
E 7  24989511.795   131320766.364        3370.720          50.000  
R 6  21492799.908   114689701.114         437.136          39.000  
E20  49906646.581   262261201.111        5967.697          42.750  
G 1  22585503.001   118687619.441        6363.706          40.500  
R22  19647333.552   104878799.604        2173.563          52.750  
R 7  19831403.604   106159058.432        4435.073          51.500  
G11  21677446.571   113915752.792        6190.728          38.000  
> 2018  9 12 11 14 32.0000000  0 19                     
G32  23463792.155   123303058.918        5942.245          44.250  
G18  20586168.371   108181043.905        5367.807          50.250  
G 8  20382852.787   107112614.772        3006.495          53.500  
E26  23004758.471   120890822.361        1553.464          51.000  
G10  21455716.088   112750550.663        1504.035          48.250  
R 8  21932048.168   117445121.653        7635.340          47.000  
G27  21364328.593   112270302.999         815.267          50.250  
G22  24140465.689   126859010.379        6927.487          41.500  
R23  20528088.368   109811438.916        6129.453          40.000  
R21  23382990.128   125127110.898        -206.167          46.250  
G20  23315050.998   122521418.898         113.522          41.250  
G14  24591034.242   129226756.314        6515.621          39.750  
E 7  24988870.454   131317396.106        3370.074          50.250  
R 6  21492718.077   114689264.344         436.480          39.000  
E20  49905511.043   262255233.774        5967.313          42.750  
G 1  22584292.105   118681256.142        6363.183          40.500  
R22  19646926.470   104876626.501        2172.866          52.750  
R 7  19830575.213   106154624.036        4434.009          51.500  
G11  21676268.616   113909562.502        6190.132          38.000  
> 2018  9 12 11 14 33.0000000  0 19                     
G32  23462661.452   123297116.979        5941.912          44.250  
G18  20585146.980   108175676.512        5367.343          50.250  
G 8  20382280.765   107109608.734        3005.916          53.500  
E26  23004462.907   120889269.152        1553.338          51.000  
G10  21455429.974   112749047.141        1503.448          48.250  
R 8  21930622.424   117437486.590        7635.052          47.250  
G27  21364173.534   112269488.149         814.816          50.250  
G22  24139147.420   126852083.135        6927.342          41.250  
R23  20526942.717   109805309.806        6129.238          40.250  
R21  23383028.776   125127317.341        -206.463          46.250  
G20  23315029.448   122521305.656         113.317          41.250  
G14  24589794.362   129220240.836        6515.552          39.500  
E 7  24988229.228   131314026.472        3369.579          50.250  
R 6  21492636.387   114688828.333         435.967          39.000  
E20  49904375.586   262249266.833        5966.979          43.000  
G 1  22583081.285   118674893.205        6362.946          40.500  
R22  19646519.495   104874454.057        2172.376          52.500  
R 7  19829747.017   106150190.674        4433.082          51.750  
G11  21675090.707   113903372.656        6189.872          38.000  
> 2018  9 12 11 14 34.0000000  0 19                     
G32  23461530.830   123291175.479        5941.375          44.250  
G18  20584125.679   108170309.593        5366.808          50.250  
G 8  20381708.862   107106603.313        3005.235          53.500  
E26  23004167.392   120887716.183        1552.975          51.000  
G10  21455143.963   112747544.164        1502.813          48.250  
R 8  21929196.760   117429851.962        7634.496          47.250  
G27  21364018.560   112268673.750         814.291          50.250  
G22  24137829.211   126845156.102        6927.118          41.500  
R23  20525797.083   109799181.047        6128.766          40.500  
R21  23383067.434   125127523.993        -206.689          46.250  
G20  23315007.961   122521192.698         112.917          41.000  
G14  24588554.514   129213725.526        6515.290          39.250  
E 7  24987588.105   131310657.370        3368.947          50.250  
R 6  21492554.820   114688393.027         435.103          39.000  
E20  49903240.190   262243300.198        5966.606          43.000  
G 1  22581870.505   118668530.526        6362.748          40.500  
R22  19646112.621   104872282.184        2171.720          52.500  
R 7  19828919.008   106145758.268        4432.011          51.500  
G11  21673912.842   113897183.193        6189.442          38.250  
> 2018  9 12 11 14 35.0000000  0 19                     
G32  23460400.298   123285234.394        5940.787          44.250  
G18  20583104.466   108164943.134        5366.180          50.250  
G 8  20381137.079   107103598.495        3004.536          53.500  
E26  23003871.924   120886163.445        1552.626          50.500  
G10  21454858.062   112746041.737        1502.128          48.250  
R 8  21927771.164   117422217.731        7634.035          47.250  
G27  21363863.676   112267859.810         813.727          50.250  
G22  24136511.039   126838229.255        6926.807          41.750  
R23  20524651.561   109793052.655        6128.230          41.000  
R21  23383106.146   125127730.861        -206.923          46.500  
G20  23314986.524   122521080.018         112.581          41.000  
G14  24587314.707   129207210.345        6515.127          39.250  
E 7  24986947.079   131307288.787        3368.348          50.000  
R 6  21492473.355   114687958.373         434.416          38.750  
E20  49902104.857   262237333.896        5966.160          42.750  
G 1  22580659.777   118662168.150        6362.329          40.500  
R22  19645705.852   104870110.872        2171.059          52.500  
R 7  19828091.162   106141326.783        4431.061          51.500  
G11  21672735.031   113890994.064        6188.943          38.250  
> 2018  9 12 11 14 36.0000000  0 19                     
G32  23459269.866   123279293.796        5940.272          44.250  
G18  20582083.358   108159577.207        5365.605          50.000  
G 8  20380565.420   107100594.344        3003.716          53.500  
E26  23003576.516   120884611.013        1552.135          50.750  
G10  21454572.270   112744539.909        1501.445          48.250  
R 8  21926345.657   117414583.994        7633.419          47.750  
G27  21363708.886   112267046.387         813.053          50.250  
G22  24135192.912   126831302.671        6926.372          42.000  
R23  20523506.121   109786924.679        6127.741          41.000  
R21  23383144.907   125127938.026        -207.373          46.500  
G20  23314965.142   122520967.695         112.072          41.000  
G14  24586074.958   129200695.408        6514.657          39.250  
E 7  24986306.164   131303920.801        3367.569          50.000  
R 6  21492392.037   114687524.476         433.310          39.000  
E20  49900969.592   262231367.959        5965.664          42.750  
G 1  22579449.081   118655806.098        6361.716          40.500  
R22  19645299.196   104867940.205        2170.208          52.500  
R 7  19827263.516   106136896.314        4429.824          51.500  
G11  21671557.292   113884805.373        6188.453          38.250  
> 2018  9 12 11 14 37.0000000  0 19                     
G32  23458139.520   123273353.627        5940.117          44.500  
G18  20581062.341   108154211.749        5365.289          50.000  
G 8  20379993.874   107097590.798        3003.286          53.500  
E26  23003281.148   120883058.809        1552.101          51.000  
G10  21454286.585   112743038.631        1501.128          48.250  
R 8  21924920.202   117406950.626        7633.282          47.750  
G27  21363554.181   112266233.412         812.819          50.250  
G22  24133874.818   126824376.264        6926.399          41.750  
R23  20522360.784   109780797.061        6127.554          40.750  
R21  23383183.722   125128145.379        -207.399          46.500  
G20  23314943.821   122520855.655         111.923          41.250  
G14  24584835.230   129194180.584        6514.854          39.250  
E 7  24985665.343   131300553.336        3367.243          50.000  
R 6  21492310.849   114687091.220         433.022          39.000  
E20  49899834.384   262225402.334        5965.511          42.750  
G 1  22578238.435   118649444.299        6361.685          40.750  
R22  19644892.641   104865770.088        2169.881          52.500  
R 7  19826436.041   106132466.746        4429.190          51.250  
G11  21670379.628   113878617.025        6188.319          38.250  
> 2018  9 12 11 14 38.0000000  0 19                     
G32  23457009.289   123267414.077        5939.027          44.500  
G18  20580041.445   108148846.928        5364.321          50.000  
G 8  20379422.482   107094588.063        3002.174          53.500  
E26  23002985.857   120881507.025        1551.406          50.750  
G10  21454001.028   112741538.088        1499.933          48.250  
R 8  21923494.859   117399317.830        7632.362          48.000  
G27  21363399.596   112265421.071         811.844          50.250  
G22  24132556.809   126817450.246        6925.788          42.000  
R23  20521215.508   109774670.009        6126.490          41.000  
R21  23383222.571   125128353.097        -208.017          46.500  
G20  23314922.577   122520744.080         111.147          41.250  
G14  24583595.560   129187666.117        6514.292          39.000  
E 7  24985024.653   131297186.587        3366.199          50.000  
R 6  21492229.836   114686658.817         431.877          38.750  
E20  49898699.269   262219437.219        5964.745          43.000  
G 1  22577027.898   118643082.983        6360.851          41.000  
R22  19644486.223   104863600.727        2168.818          52.500  
R 7  19825608.773   106128038.309        4427.717          51.500  
G11  21669202.097   113872429.236        6187.417          38.500  
> 2018  9 12 11 14 39.0000000  0 19                     
G32  23455879.143   123261475.002        5938.938          44.500  
G18  20579020.649   108143482.627        5364.136          50.000  
G 8  20378851.205   107091585.977        3001.865          53.500  
E26  23002690.623   120879955.527        1551.469          50.750  
G10  21453715.589   112740038.127        1499.809          48.500  
R 8  21922069.600   117391685.484        7632.236          48.000  
G27  21363245.114   112264609.244         811.683          50.250  
G22  24131238.837   126810524.479        6925.766          41.750  
R23  20520070.300   109768543.372        6126.459          40.750  
R21  23383261.473   125128561.070        -208.016          46.500  
G20  23314901.412   122520632.841         111.214          41.250  
G14  24582355.961   129181151.854        6514.278          39.000  
E 7  24984384.082   131293820.414        3365.961          50.000  
R 6  21492148.952   114686227.147         431.380          38.750  
E20  49897564.213   262213472.468        5964.628          42.750  
G 1  22575817.420   118636721.994        6360.835          41.000  
R22  19644079.932   104861431.975        2168.589          52.750  
R 7  19824781.682   106123610.866        4427.060          51.250  
G11  21668024.646   113866241.848        6187.341          38.500  
> 2018  9 12 11 14 40.0000000  0 19                     
G32  23454749.078   123255536.376        5938.422          44.500  
G18  20577999.948   108138118.833        5363.491          50.000  
G 8  20378280.052   107088584.529        3001.097          53.500  
E26  23002395.447   120878404.296        1551.072          51.000  
G10  21453430.258   112738538.733        1499.189          48.500  
R 8  21920644.423   117384053.570        7631.693          48.000  
G27  21363090.716   112263797.892         811.136          50.250  
G22  24129920.902   126803598.924        6925.557          42.000  
R23  20518925.124   109762417.132        6125.993          40.500  
R21  23383300.391   125128769.265        -208.324          46.500  
G20  23314880.311   122520521.918         110.715          41.250  
G14  24581116.415   129174637.766        6514.030          38.750  
E 7  24983743.620   131290454.803        3365.259          50.250  
R 6  21492068.201   114685796.113         430.643          38.500  
E20  49896429.217   262207508.060        5964.256          43.250  
G 1  22574606.997   118630361.294        6360.496          40.750  
R22  19643673.758   104859263.806        2167.880          52.500  
R 7  19823954.766   106119184.438        4425.935          51.250  
G11  21666847.292   113860054.846        6186.923          38.250  
> 2018  9 12 11 14 41.0000000  0 19                     
G32  23453619.087   123249598.103        5938.117          44.500  
G18  20576979.317   108132755.431        5363.223          50.000  
G 8  20377708.998   107085583.614        3000.680          53.500  
E26  23002100.300   120876853.223        1551.006          51.000  
G10  21453145.021   112737039.824        1498.718          48.500  
R 8  21919219.290   117376421.965        7631.458          48.000  
G27  21362936.398   112262986.925         810.819          50.250  
G22  24128602.977   126796673.474        6925.417          42.000  
R23  20517779.987   109756291.170        6125.829          40.250  
R21  23383339.340   125128977.626        -208.454          46.500  
G20  23314859.248   122520411.196         110.627          41.500  
G14  24579876.877   129168123.761        6514.022          39.000  
E 7  24983103.232   131287089.631        3364.950          50.250  
R 6  21491987.552   114685365.675         430.154          38.750  
E20  49895294.264   262201543.895        5964.091          43.000  
G 1  22573396.614   118624000.788        6360.453          40.750  
R22  19643267.680   104857096.112        2167.488          52.500  
R 7  19823128.018   106114758.896        4425.124          51.250  
G11  21665670.008   113853868.133        6186.582          38.250  
> 2018  9 12 11 14 42.0000000  0 19                     
G32  23452489.133   123243660.094        5937.917          44.500  
G18  20575958.737   108127392.343        5363.014          50.000  
G 8  20377138.032   107082583.151        3000.303          53.500  
E26  23001805.172   120875302.222        1551.024          50.750  
G10  21452859.863   112735541.288        1498.407          48.250  
R 8  21917794.210   117368790.584        7631.379          48.000  
G27  21362782.131   112262176.246         810.619          50.250  
G22  24127285.055   126789748.071        6925.484          41.750  
R23  20516634.860   109750165.415        6125.691          40.250  
R21  23383378.278   125129186.038        -208.359          46.500  
G20  23314838.216   122520300.600         110.704          41.250  
G14  24578637.324   129161609.743        6514.116          39.000  
E 7  24982462.921   131283724.829        3364.750          50.000  
R 6  21491906.995   114684935.759         429.743          38.500  
E20  49894159.341   262195579.866        5963.982          42.750  
G 1  22572186.264   118617640.398        6360.369          41.000  
R22  19642861.680   104854928.811        2167.204          52.500  
R 7  19822301.403   106110334.106        4424.529          51.500  
G11  21664492.793   113847681.621        6186.418          38.250  
> 2018  9 12 11 14 43.0000000  0 19                     
G32  23451359.245   123237722.439        5937.467          44.500  
G18  20574938.232   108122029.675        5362.389          50.000  
G 8  20376567.171   107079583.239        2999.635          53.500  
E26  23001510.077   120873751.392        1550.732          51.000  
G10  21452574.804   112734043.220        1497.792          48.250  
R 8  21916369.201   117361159.556        7630.882          48.250  
G27  21362627.940   112261365.960         810.037          50.250  
G22  24125967.157   126782822.804        6925.190          41.750  
R23  20515489.707   109744039.961        6125.297          40.000  
R21  23383417.228   125129394.569        -208.559          46.500  
G20  23314817.225   122520190.214         110.243          41.250  
G14  24577397.787   129155095.812        6513.938          38.750  
E 7  24981822.697   131280360.491        3364.059          50.250  
R 6  21491826.534   114684506.409         428.994          38.500  
E20  49893024.463   262189616.087        5963.617          43.000  
G 1  22570975.958   118611280.226        6359.924          41.000  
R22  19642455.773   104852762.011        2166.515          52.500  
R 7  19821474.948   106105910.156        4423.523          51.500  
G11  21663315.628   113841495.384        6186.146          38.250  
> 2018  9 12 11 14 44.0000000  0 19                     
G32  23450229.471   123231785.405        5936.722          44.500  
G18  20573917.849   108116667.640        5361.580          50.000  
G 8  20375996.461   107076584.105        2998.607          53.250  
E26  23001215.067   120872200.979        1550.082          51.250  
G10  21452289.885   112732545.883        1496.900          48.250  
R 8  21914944.300   117353529.107        7630.028          48.250  
G27  21362473.870   112260556.304         809.233          50.000  
G22  24124649.316   126775897.890        6924.557          42.000  
R23  20514344.683   109737915.054        6124.427          39.750  
R21  23383456.237   125129603.480        -209.212          46.250  
G20  23314796.338   122520080.299         109.689          41.000  
G14  24576158.300   129148582.204        6513.309          38.500  
E 7  24981182.615   131276996.863        3363.108          50.250  
R 6  21491746.225   114684077.907         427.862          38.500  
E20  49891889.678   262183652.816        5962.997          43.250  
G 1  22569765.734   118604920.517        6359.287          41.000  
R22  19642050.004   104850595.950        2165.604          52.500  
R 7  19820648.707   106101487.314        4422.131          51.500  
G11  21662138.568   113835309.724        6185.222          38.000  
> 2018  9 12 11 14 45.0000000  0 19                     
G32  23449099.787   123225848.864        5936.109          44.750  
G18  20572897.563   108111306.112        5361.098          50.000  
G 8  20375425.879   107073585.646        2997.978          53.250  
E26  23000920.109   120870650.867        1549.829          51.000  
G10  21452005.083   112731049.162        1496.349          48.250  
R 8  21913519.471   117345899.096        7629.644          48.250  
G27  21362319.900   112259747.167         808.762          50.000  
G22  24123331.539   126768973.246        6924.438          42.000  
R23  20513199.705   109731790.575        6124.190          39.500  
R21  23383495.277   125129812.650        -209.427          46.000  
G20  23314775.511   122519970.731         109.386          41.000  
G14  24574918.858   129142068.834        6513.170          38.500  
E 7  24980542.654   131273633.829        3362.576          50.000  
R 6  21491666.037   114683650.126         427.359          38.500  
E20  49890754.971   262177689.933        5962.496          42.750  
G 1  22568555.554   118598561.124        6359.200          41.250  
R22  19641644.350   104848430.525        2165.005          52.500  
R 7  19819822.652   106097065.481        4421.250          51.500  
G11  21660961.557   113829124.456        6184.924          38.250  
> 2018  9 12 11 14 46.0000000  0 19                     
G32  23447970.170   123219912.725        5936.008          44.750  
G18  20571877.373   108105945.047        5360.898          50.000  
G 8  20374855.409   107070587.797        2997.593          53.250  
E26  23000625.196   120869100.978        1549.838          51.000  
G10  21451720.383   112729552.969        1495.947          48.000  
R 8  21912094.719   117338269.463        7629.495          48.250  
G27  21362166.021   112258938.475         808.518          50.000  
G22  24122013.799   126762048.780        6924.456          41.750  
R23  20512054.751   109725666.421        6123.997          39.000  
R21  23383534.361   125130022.022        -209.436          46.250  
G20  23314754.714   122519861.449         109.145          41.000  
G14  24573679.442   129135555.605        6512.992          38.500  
E 7  24979902.790   131270271.304        3362.334          50.000  
R 6  21491585.976   114683223.052         426.686          38.750  
E20  49889620.318   262171727.336        5962.539          42.750  
G 1  22567345.447   118592202.009        6358.879          41.000  
R22  19641238.800   104846265.653        2164.630          52.500  
R 7  19818996.772   106092644.577        4420.497          51.500  
G11  21659784.632   113822939.554        6184.676          38.000  
> 2018  9 12 11 14 47.0000000  0 19                     
G32  23446840.661   123213977.090        5935.496          44.750  
G18  20570857.292   108100584.528        5360.391          50.000  
G 8  20374285.067   107067590.627        2996.956          53.250  
E26  23000330.340   120867551.389        1549.551          51.000  
G10  21451435.798   112728057.382        1495.361          48.000  
R 8  21910670.052   117330640.306        7629.086          48.250  
G27  21362012.238   112258130.302         808.018          50.000  
G22  24120696.134   126755124.580        6924.363          41.750  
R23  20510909.874   109719542.692        6123.631          38.750  
R21  23383573.486   125130231.641        -209.649          46.000  
G20  23314733.969   122519752.512         108.744          40.750  
G14  24572440.074   129129042.583        6512.978          38.500  
E 7  24979263.043   131266909.372        3361.762          49.750  
R 6  21491506.053   114682796.691         426.147          39.000  
E20  49888485.739   262165765.137        5962.142          42.750  
G 1  22566135.394   118585843.206        6358.744          41.000  
R22  19640833.361   104844101.402        2164.073          52.500  
R 7  19818171.088   106088224.691        4419.535          51.500  
G11  21658607.767   113816755.071        6184.466          37.750  
> 2018  9 12 11 14 48.0000000  0 19                     
G32  23445711.253   123208041.998        5935.063          44.750  
G18  20569837.333   108095224.600        5359.802          50.000  
G 8  20373714.859   107064594.170        2996.271          53.250  
E26  23000035.550   120866002.146        1549.279          50.750  
G10  21451151.335   112726562.457        1494.828          48.000  
R 8  21909245.476   117323011.682        7628.606          48.000  
G27  21361858.558   112257322.692         807.495          50.000  
G22  24119378.539   126748200.694        6923.876          41.750  
R23  20509765.000   109713419.448        6123.193          38.500  
R21  23383612.678   125130441.577        -209.890          46.000  
G20  23314713.292   122519643.962         108.548          40.750  
G14  24571200.765   129122529.835        6512.812          38.000  
E 7  24978623.424   131263548.080        3361.206          50.000  
R 6  21491426.298   114682371.114         425.447          39.000  
E20  49887351.240   262159803.358        5961.780          42.750  
G 1  22564925.416   118579484.805        6358.439          41.000  
R22  19640428.045   104841937.831        2163.428          52.500  
R 7  19817345.610   106083805.873        4418.495          51.500  
G11  21657430.969   113810571.066        6184.016          37.750  
> 2018  9 12 11 14 49.0000000  0 19                     
G32  23444581.946   123202107.347        5934.543          44.750  
G18  20568817.472   108089865.159        5359.302          50.000  
G 8  20373144.772   107061598.343        2995.627          53.000  
E26  22999740.808   120864453.164        1548.945          51.250  
G10  21450866.969   112725068.092        1494.164          47.750  
R 8  21907820.954   117315383.464        7628.100          48.250  
G27  21361704.962   112256515.552         807.021          49.750  
G22  24118060.972   126741277.004        6923.712          41.750  
R23  20508620.161   109707296.562        6122.850          38.750  
R21  23383651.915   125130651.762        -210.117          46.000  
G20  23314692.675   122519535.712         108.227          40.750  
G14  24569961.501   129116017.260        6512.508          38.250  
E 7  24977983.916   131260187.343        3360.573          50.250  
R 6  21491346.683   114681946.219         424.774          39.000  
E20  49886216.804   262153841.902        5961.420          43.000  
G 1  22563715.494   118573126.698        6358.110          41.000  
R22  19640022.836   104839774.840        2162.832          52.500  
R 7  19816520.319   106079388.023        4417.469          51.500  
G11  21656254.254   113804387.429        6183.702          37.750  
> 2018  9 12 11 14 50.0000000  0 19                     
G32  23443452.713   123196173.073        5934.150          45.000  
G18  20567797.691   108084506.123        5358.845          50.000  
G 8  20372574.795   107058603.084        2994.970          53.250  
E26  22999446.099   120862904.370        1548.729          51.250  
G10  21450582.700   112723574.226        1493.578          47.750  
R 8  21906396.478   117307755.573        7627.761          48.250  
G27  21361551.443   112255708.821         806.501          49.750  
G22  24116743.454   126734353.478        6923.400          41.750  
R23  20507475.400   109701174.027        6122.248          38.750  
R21  23383691.189   125130862.112        -210.453          45.750  
G20  23314672.114   122519427.701         107.918          41.000  
G14  24568722.232   129109504.775        6512.543          38.500  
E 7  24977344.496   131256827.084        3359.991          50.250  
R 6  21491267.187   114681521.949         423.988          39.000  
E20  49885082.423   262147880.737        5961.021          43.000  
G 1  22562505.625   118566768.830        6357.752          41.000  
R22  19639617.721   104837612.363        2162.261          52.500  
R 7  19815695.197   106074971.067        4416.540          51.500  
G11  21655077.603   113798204.133        6183.104          37.750  
> 2018  9 12 11 14 51.0000000  0 19                     
G32  23442323.574   123190239.268        5933.443          45.000  
G18  20566778.000   108079147.585        5358.150          50.000  
G 8  20372004.941   107055608.459        2994.123          53.000  
E26  22999151.443   120861355.838        1548.253          51.000  
G10  21450298.540   112722080.925        1492.861          47.750  
R 8  21904972.060   117300128.124        7627.050          48.000  
G27  21361398.017   112254902.573         805.820          49.750  
G22  24115425.963   126727430.176        6923.053          41.750  
R23  20506330.699   109695051.872        6121.681          38.750  
R21  23383730.505   125131072.697        -210.854          45.500  
G20  23314651.618   122519320.018         107.336          40.500  
G14  24567482.982   129102992.488        6512.146          38.500  
E 7  24976705.180   131253467.372        3359.326          49.750  
R 6  21491187.821   114681098.368         423.049          39.000  
E20  49883948.107   262141919.923        5960.518          42.500  
G 1  22561295.813   118560411.264        6357.295          41.000  
R22  19639212.720   104835450.478        2161.403          52.500  
R 7  19814870.258   106070555.057        4415.393          51.500  
G11  21653900.985   113792021.207        6182.614          37.750  
> 2018  9 12 11 14 52.0000000  0 19                     
G32  23441194.522   123184305.963        5933.172          45.000  
G18  20565758.410   108073789.610        5357.824          50.000  
G 8  20371435.216   107052614.527        2993.701          53.250  
E26  22998856.835   120859807.617        1548.249          51.000  
G10  21450014.498   112720588.252        1492.529          47.750  
R 8  21903547.742   117292501.159        7626.858          48.000  
G27  21361244.697   112254096.853         805.615          50.000  
G22  24114108.533   126720507.148        6923.042          42.000  
R23  20505186.115   109688930.204        6121.528          38.500  
R21  23383769.881   125131283.561        -210.882          45.500  
G20  23314631.179   122519212.700         107.207          40.500  
G14  24566243.771   129096480.422        6512.255          38.000  
E 7  24976065.989   131250108.277        3358.930          49.750  
R 6  21491108.623   114680675.501         422.709          39.000  
E20  49882813.860   262135959.475        5960.325          42.250  
G 1  22560086.063   118554054.041        6357.153          40.750  
R22  19638807.836   104833289.233        2161.097          52.500  
R 7  19814045.505   106066140.042        4414.651          51.500  
G11  21652724.460   113785838.724        6182.390          37.750  
> 2018  9 12 11 14 53.0000000  0 19                     
G32  23440065.535   123178373.039        5932.620          45.000  
G18  20564738.895   108068432.054        5357.313          50.000  
G 8  20370865.602   107049621.163        2992.998          53.250  
E26  22998562.269   120858259.592        1547.826          51.250  
G10  21449730.548   112719096.079        1491.833          47.750  
R 8  21902123.471   117284874.531        7626.368          48.000  
G27  21361091.452   112253291.548         805.005          50.000  
G22  24112791.140   126713584.256        6922.777          42.000  
R23  20504041.608   109682808.808        6121.091          38.750  
R21  23383809.296   125131494.564        -211.135          45.500  
G20  23314610.780   122519105.591         106.907          40.500  
G14  24565004.569   129089968.480        6511.893          38.250  
E 7  24975426.883   131246749.654        3358.267          50.000  
R 6  21491029.548   114680253.255         421.957          39.000  
E20  49881679.664   262129999.311        5960.004          42.500  
G 1  22558876.346   118547697.060        6356.716          40.750  
R22  19638403.052   104831128.505        2160.370          52.500  
R 7  19813220.928   106061725.922        4413.542          51.750  
G11  21651547.996   113779656.556        6182.060          37.500  
> 2018  9 12 11 14 54.0000000  0 19                     
G32  23438936.609   123172440.494        5932.236          44.750  
G18  20563719.457   108063074.908        5356.868          50.000  
G 8  20370296.094   107046628.356        2992.420          53.250  
E26  22998267.729   120856711.747        1547.660          51.500  
G10  21449446.690   112717604.390        1491.299          47.750  
R 8  21900699.280   117277248.272        7626.006          48.000  
G27  21360938.279   112252486.631         804.654          50.000  
G22  24111473.763   126706661.517        6922.533          42.000  
R23  20502897.261   109676687.756        6120.990          39.000  
R21  23383848.758   125131705.732        -211.336          45.750  
G20  23314590.420   122518998.737         106.705          40.250  
G14  24563765.392   129083456.644        6511.618          38.500  
E 7  24974787.874   131243391.514        3357.873          50.250  
R 6  21490950.598   114679831.617         421.313          39.000  
E20  49880545.518   262124039.420        5959.783          42.750  
G 1  22557666.656   118541340.294        6356.519          41.000  
R22  19637998.358   104828968.283        2159.895          52.250  
R 7  19812396.522   106057312.723        4412.694          51.500  
G11  21650371.591   113773474.717        6181.470          37.250  
> 2018  9 12 11 14 55.0000000  0 19                     
G32  23437807.782   123166508.441        5931.874          45.000  
G18  20562700.120   108057718.295        5356.417          50.000  
G 8  20369726.719   107043636.234        2991.884          53.000  
E26  22997973.247   120855164.206        1547.457          51.500  
G10  21449162.946   112716113.317        1490.850          48.000  
R 8  21899275.167   117269622.505        7625.578          48.250  
G27  21360785.216   112251682.251         804.200          50.000  
G22  24110156.434   126699739.029        6922.500          42.000  
R23  20501753.079   109670567.144        6120.501          38.750  
R21  23383888.252   125131917.188        -211.546          45.500  
G20  23314570.131   122518892.237         106.474          40.500  
G14  24562526.250   129076945.004        6511.605          38.250  
E 7  24974148.978   131240033.972        3357.268          50.250  
R 6  21490871.774   114679410.710         420.509          39.000  
E20  49879411.449   262118079.912        5959.357          42.500  
G 1  22556457.022   118534983.855        6356.399          41.000  
R22  19637593.789   104826808.708        2159.355          52.500  
R 7  19811572.320   106052900.552        4411.756          51.500  
G11  21649195.289   113767293.278        6181.439          37.500  
> 2018  9 12 11 14 56.0000000  0 19                     
G32  23436679.023   123160576.722        5931.427          45.000  
G18  20561680.853   108052362.050        5356.038          50.000  
G 8  20369157.435   107040644.590        2991.363          53.000  
E26  22997678.791   120853616.791        1547.322          51.500  
G10  21448879.282   112714622.672        1490.546          48.000  
R 8  21897851.116   117261997.030        7625.229          48.250  
G27  21360632.217   112250878.212         803.827          50.000  
G22  24108839.131   126692816.637        6922.208          42.000  
R23  20500608.948   109664446.762        6120.300          38.750  
R21  23383927.752   125132128.726        -211.634          45.500  
G20  23314549.877   122518785.908         106.264          40.500  
G14  24561287.104   129070433.428        6511.328          38.250  
E 7  24973510.158   131236676.840        3356.907          50.000  
R 6  21490793.052   114678990.328         420.172          39.250  
E20  49878277.422   262112120.611        5959.071          42.250  
G 1  22555247.454   118528627.610        6356.130          41.000  
R22  19637189.304   104824649.588        2158.854          52.500  
R 7  19810748.275   106048489.196        4410.893          51.500  
G11  21648019.024   113761112.106        6181.065          37.250  
> 2018  9 12 11 14 57.0000000  0 19                     
G32  23435550.340   123154645.448        5931.359          45.000  
G18  20560661.682   108047006.306        5355.814          50.000  
G 8  20368588.274   107037653.582        2991.005          53.250  
E26  22997384.376   120852069.637        1547.387          51.750  
G10  21448595.739   112713132.611        1490.107          48.000  
R 8  21896427.137   117254371.947        7625.188          48.250  
G27  21360479.311   112250074.647         803.645          50.000  
G22  24107521.870   126685894.467        6922.363          42.000  
R23  20499464.909   109658326.800        6120.023          39.000  
R21  23383967.265   125132340.462        -211.423          45.500  
G20  23314529.682   122518679.890         106.145          40.750  
G14  24560047.996   129063922.025        6511.639          38.250  
E 7  24972871.444   131233320.266        3356.668          50.250  
R 6  21490714.470   114678570.648         419.665          39.250  
E20  49877143.465   262106161.654        5959.068          42.750  
G 1  22554037.952   118522271.668        6355.824          40.750  
R22  19636784.920   104822491.050        2158.544          52.500  
R 7  19809924.393   106044078.776        4410.271          51.500  
G11  21646842.841   113754931.331        6180.805          37.250  
> 2018  9 12 11 14 58.0000000  0 19                     
G32  23434421.730   123148714.577        5930.699          45.250  
G18  20559642.595   108041650.989        5355.054          50.250  
G 8  20368019.222   107034663.168        2990.067          53.250  
E26  22997090.008   120850522.700        1546.776          51.750  
G10  21448312.290   112711643.054        1489.208          48.000  
R 8  21895003.233   117246747.236        7624.508          48.000  
G27  21360326.492   112249271.524         802.896          50.250  
G22  24106204.646   126678972.465        6921.941          42.250  
R23  20498320.938   109652207.178        6119.445          39.500  
R21  23384006.809   125132552.386        -212.057          45.250  
G20  23314509.539   122518574.129         105.599          40.750  
G14  24558808.912   129057410.745        6511.186          38.250  
E 7  24972232.831   131229964.200        3355.803          50.250  
R 6  21490636.003   114678151.605         418.513          39.250  
E20  49876009.565   262100202.973        5958.472          42.500  
G 1  22552828.475   118515915.950        6355.567          41.250  
R22  19636380.634   104820333.048        2157.642          52.500  
R 7  19809100.661   106039669.269        4409.046          51.500  
G11  21645666.722   113748750.885        6180.261          37.500  
> 2018  9 12 11 14 59.0000000  0 19                     
G32  23433293.195   123142784.078        5930.248          45.250  
G18  20558623.595   108036296.092        5354.648          50.000  
G 8  20367450.267   107031673.308        2989.538          53.250  
E26  22996795.666   120848975.926        1546.646          51.500  
G10  21448028.944   112710153.983        1488.770          48.000  
R 8  21893579.405   117239122.847        7624.237          48.250  
G27  21360173.738   112248468.781         802.536          50.250  
G22  24104887.442   126672050.583        6921.812          42.250  
R23  20497177.079   109646087.819        6119.343          39.500  
R21  23384046.382   125132764.455        -212.225          45.000  
G20  23314489.447   122518468.579         105.416          40.750  
G14  24557569.861   129050899.560        6511.041          38.000  
E 7  24971594.303   131226608.588        3355.366          50.000  
R 6  21490557.652   114677733.159         418.027          39.250  
E20  49874875.709   262094244.555        5958.245          42.000  
G 1  22551619.050   118509560.456        6355.429          41.250  
R22  19635976.450   104818175.539        2157.247          52.500  
R 7  19808277.109   106035260.653        4408.151          51.750  
G11  21644490.642   113742570.722        6180.178          37.250  
> 2018  9 12 11 15  0.0000000  0 19                     
G32  23432164.715   123136853.896        5929.959          45.000  
G18  20557604.665   108030941.558        5354.429          50.000  
G 8  20366881.409   107028683.950        2989.111          53.250  
E26  22996501.340   120847429.284        1546.626          51.750  
G10  21447745.680   112708665.342        1488.396          48.000  
R 8  21892155.651   117231498.766        7623.968          48.250  
G27  21360021.048   112247666.391         802.228          50.250  
G22  24103570.256   126665128.791        6921.865          42.250  
R23  20496033.262   109639968.718        6118.951          39.750  
R21  23384085.998   125132976.662        -212.272          45.250  
G20  23314469.405   122518363.222         105.323          40.750  
G14  24556330.827   129044388.415        6511.185          38.250  
E 7  24970955.853   131223253.406        3355.016          50.250  
R 6  21490479.367   114677315.273         417.667          39.250  
E20  49873741.896   262088286.348        5958.132          42.500  
G 1  22550409.656   118503205.131        6355.104          41.000  
R22  19635572.359   104816018.486        2156.882          52.250  
R 7  19807453.703   106030852.895        4407.381          51.750  
G11  21643314.634   113736390.843        6179.721          37.250  
> 2018  9 12 11 15  1.0000000  0 19                     
G32  23431036.318   123130924.173        5929.373          45.250  
G18  20556585.833   108025587.533        5353.639          50.000  
G 8  20366312.663   107025695.224        2988.313          53.250  
E26  22996207.070   120845882.900        1546.158          51.750  
G10  21447462.516   112707177.263        1487.720          48.000  
R 8  21890731.980   117223875.110        7623.333          48.250  
G27  21359868.447   112246864.469         801.664          50.250  
G22  24102253.111   126658207.230        6921.346          42.250  
R23  20494889.612   109633850.011        6118.450          40.000  
R21  23384125.628   125133189.089        -212.795          45.500  
G20  23314449.438   122518258.165         104.837          40.750  
G14  24555091.832   129037877.474        6510.754          38.250  
E 7  24970317.512   131219898.764        3354.262          50.250  
R 6  21490401.184   114676898.087         416.693          39.250  
E20  49872608.148   262082328.467        5957.609          42.250  
G 1  22549200.329   118496850.105        6354.881          41.250  
R22  19635168.383   104813862.020        2156.043          52.500  
R 7  19806630.470   106026446.099        4406.221          51.750  
G11  21642138.691   113730211.327        6179.211          37.500  
> 2018  9 12 11 15  2.0000000  0 19                     
G32  23429908.022   123124995.001        5928.930          45.250  
